{
  "date": "2026-07-21",
  "events": [
    {
      "duration_hours": 806.6,
      "end": "2026-07-14T05:51:24.000Z",
      "gfw_url": "https://globalfishingwatch.org/map/vessel/f69ca581d-defd-04ac-d4d6-7ea7c8186331",
      "id": "50c1ae4424250506de9f251f97b61070",
      "off": {
        "lat": -14.6282,
        "lon": 175.7881
      },
      "on": {
        "lat": -21.6408,
        "lon": 173.9899
      },
      "regions": {
        "eez": [
          "8325"
        ],
        "eez_name": "Fijian EEZ",
        "high_seas": false,
        "mpa": false,
        "no_take": false
      },
      "start": "2026-06-10T15:16:53.000Z",
      "vessel": {
        "flag": "—",
        "name": "HANGTON11106-99%",
        "type": "gear"
      }
    },
    {
      "duration_hours": 773.5,
      "end": "2026-07-16T16:36:44.000Z",
      "gfw_url": "https://globalfishingwatch.org/map/vessel/4d7744519-9c30-6724-f89c-177e1bdcf9cb",
      "id": "2f34e0f1a48c0ed3073720e54d16d62a",
      "off": {
        "lat": 10.4301,
        "lon": -88.3336
      },
      "on": {
        "lat": 11.6181,
        "lon": -134.1314
      },
      "regions": {
        "eez": [
          "8425"
        ],
        "eez_name": "Nicaraguan EEZ",
        "high_seas": false,
        "mpa": false,
        "no_take": false
      },
      "start": "2026-06-14T11:05:26.000Z",
      "vessel": {
        "flag": "VEN",
        "name": "TALENDUIC",
        "type": "fishing"
      }
    },
    {
      "duration_hours": 659.8,
      "end": "2026-07-16T00:05:43.000Z",
      "gfw_url": "https://globalfishingwatch.org/map/vessel/16b2a11e8-8ee6-6186-c178-e2dc7328c532",
      "id": "bee033d2f26106c259981b50cf1753c1",
      "off": {
        "lat": -7.2578,
        "lon": -175.9647
      },
      "on": {
        "lat": -6.1814,
        "lon": -165.9203
      },
      "regions": {
        "eez": [
          "8450"
        ],
        "eez_name": "Kiribati EEZ (Phoenix Group)",
        "high_seas": false,
        "mpa": false,
        "no_take": false
      },
      "start": "2026-06-18T12:17:00.000Z",
      "vessel": {
        "flag": "—",
        "name": "ZS937           12V6",
        "type": "gear"
      }
    },
    {
      "duration_hours": 609.1,
      "end": "2026-07-14T21:53:50.000Z",
      "gfw_url": "https://globalfishingwatch.org/map/vessel/763b4194f-f49e-cbcf-0e46-d3ad421d6a1c",
      "id": "1dd6b645867321b716ac2416c5b4b04a",
      "off": {
        "lat": -7.1486,
        "lon": 154.3143
      },
      "on": {
        "lat": -4.9201,
        "lon": 153.3554
      },
      "regions": {
        "eez": [
          "8324"
        ],
        "eez_name": "Papua New Guinean EEZ",
        "high_seas": false,
        "mpa": false,
        "no_take": false
      },
      "start": "2026-06-19T12:46:00.000Z",
      "vessel": {
        "flag": "TZA",
        "name": "ATLANTIC",
        "type": "other"
      }
    },
    {
      "duration_hours": 588.7,
      "end": "2026-07-14T05:50:06.000Z",
      "gfw_url": "https://globalfishingwatch.org/map/vessel/3094d59b8-8a02-e121-b17f-78f081b8dd61",
      "id": "30c51cbd4aaeec3c3790dc75dd1ebcb2",
      "off": {
        "lat": 21.8185,
        "lon": -155.9929
      },
      "on": {
        "lat": 22.3068,
        "lon": -155.5653
      },
      "regions": {
        "eez": [
          "8453"
        ],
        "eez_name": "United States EEZ (Hawaii)",
        "high_seas": false,
        "mpa": false,
        "no_take": false
      },
      "start": "2026-06-19T17:06:51.000Z",
      "vessel": {
        "flag": "USA",
        "name": "LANIKAI",
        "type": "fishing"
      }
    },
    {
      "duration_hours": 518.2,
      "end": "2026-07-16T20:29:38.000Z",
      "gfw_url": "https://globalfishingwatch.org/map/vessel/027f4d696-6954-e1ec-5f9b-fc4eb974fb6a",
      "id": "7f2946d034ce9e25e14646abfcc49801",
      "off": {
        "lat": 24.5535,
        "lon": -159.0241
      },
      "on": {
        "lat": 32.0075,
        "lon": -158.7446
      },
      "regions": {
        "eez": [
          "8453"
        ],
        "eez_name": "United States EEZ (Hawaii)",
        "high_seas": false,
        "mpa": false,
        "no_take": false
      },
      "start": "2026-06-25T06:15:11.000Z",
      "vessel": {
        "flag": "USA",
        "name": "LADY ANN MARGARET",
        "type": "fishing"
      }
    },
    {
      "duration_hours": 492.0,
      "end": "2026-07-15T20:11:28.000Z",
      "gfw_url": "https://globalfishingwatch.org/map/vessel/ec1f76390-0c35-d51e-8c6a-cce8bef5cfa1",
      "id": "8ca3e65490f33e017796f3faf023bb1d",
      "off": {
        "lat": -10.4839,
        "lon": -157.4044
      },
      "on": {
        "lat": -10.5783,
        "lon": -157.0374
      },
      "regions": {
        "eez": [
          "8446"
        ],
        "eez_name": "New Zealand EEZ (Cook Islands)",
        "high_seas": false,
        "mpa": false,
        "no_take": false
      },
      "start": "2026-06-25T08:09:22.000Z",
      "vessel": {
        "flag": "—",
        "name": "HAIXING815-2",
        "type": "gear"
      }
    },
    {
      "duration_hours": 491.5,
      "end": "2026-07-15T16:46:26.000Z",
      "gfw_url": "https://globalfishingwatch.org/map/vessel/902273d90-0d79-ffff-4f8a-f429cafd3d57",
      "id": "0c2e075d8c910d652ccd84eaf79ff3e2",
      "off": {
        "lat": -10.4152,
        "lon": -157.5555
      },
      "on": {
        "lat": -10.7565,
        "lon": -157.3395
      },
      "regions": {
        "eez": [
          "8446"
        ],
        "eez_name": "New Zealand EEZ (Cook Islands)",
        "high_seas": false,
        "mpa": false,
        "no_take": false
      },
      "start": "2026-06-25T05:14:09.000Z",
      "vessel": {
        "flag": "—",
        "name": "HAIXING716-8",
        "type": "gear"
      }
    },
    {
      "duration_hours": 485.3,
      "end": "2026-07-16T17:14:48.000Z",
      "gfw_url": "https://globalfishingwatch.org/map/vessel/3336500b7-7b80-9b3c-0c51-8155babca30c",
      "id": "25d8cd485fd7a254c3e246d549fafa3c",
      "off": {
        "lat": 3.9755,
        "lon": 169.5173
      },
      "on": {
        "lat": 7.1034,
        "lon": 167.1675
      },
      "regions": {
        "eez": [
          "8318"
        ],
        "eez_name": "Marshallese EEZ",
        "high_seas": false,
        "mpa": false,
        "no_take": false
      },
      "start": "2026-06-26T11:55:23.000Z",
      "vessel": {
        "flag": "—",
        "name": "SLC781--15",
        "type": "gear"
      }
    },
    {
      "duration_hours": 482.1,
      "end": "2026-07-15T16:44:53.000Z",
      "gfw_url": "https://globalfishingwatch.org/map/vessel/002092926-6173-534d-7d06-2a1af294416d",
      "id": "61ce31188b59403bec35f7ee58aba896",
      "off": {
        "lat": -10.6166,
        "lon": -157.0797
      },
      "on": {
        "lat": -10.7619,
        "lon": -157.3505
      },
      "regions": {
        "eez": [
          "8446"
        ],
        "eez_name": "New Zealand EEZ (Cook Islands)",
        "high_seas": false,
        "mpa": false,
        "no_take": false
      },
      "start": "2026-06-25T14:37:31.000Z",
      "vessel": {
        "flag": "—",
        "name": "HAIXING716-1",
        "type": "gear"
      }
    },
    {
      "duration_hours": 379.7,
      "end": "2026-07-15T15:30:21.000Z",
      "gfw_url": "https://globalfishingwatch.org/map/vessel/3c56f9dd6-6dfe-3ae4-6863-e7c8bad83a0a",
      "id": "fa3e71b5e49bc830a09dc3a56e4d35c0",
      "off": {
        "lat": 55.6952,
        "lon": -169.7098
      },
      "on": {
        "lat": 57.1498,
        "lon": -170.5751
      },
      "regions": {
        "eez": [
          "8463"
        ],
        "eez_name": "United States EEZ (Alaska)",
        "high_seas": false,
        "mpa": false,
        "no_take": false
      },
      "start": "2026-06-29T19:47:58.000Z",
      "vessel": {
        "flag": "USA",
        "name": "FRONTIER SPIRIT",
        "type": "fishing"
      }
    },
    {
      "duration_hours": 327.1,
      "end": "2026-07-14T18:54:55.000Z",
      "gfw_url": "https://globalfishingwatch.org/map/vessel/2bf718553-3b9e-66ee-08bf-d3dc620765c0",
      "id": "f1b98014aa336e03ceffc51493555d4b",
      "off": {
        "lat": -7.2782,
        "lon": -175.9032
      },
      "on": {
        "lat": -9.5176,
        "lon": -176.1572
      },
      "regions": {
        "eez": [
          "8450"
        ],
        "eez_name": "Kiribati EEZ (Phoenix Group)",
        "high_seas": false,
        "mpa": false,
        "no_take": false
      },
      "start": "2026-07-01T03:45:42.000Z",
      "vessel": {
        "flag": "—",
        "name": "107000255",
        "type": "gear"
      }
    }
  ],
  "generated_at": "2026-07-21T06:23:05Z",
  "index": {
    "dark_hours_examined": 79369.5,
    "in_eez": 119,
    "in_mpa": 0,
    "in_no_take": 0,
    "on_high_seas": 0,
    "total": 5336
  },
  "pick": "50c1ae4424250506de9f251f97b61070",
  "pipeline_version": "0.1.0",
  "schema_version": "1",
  "source": {
    "license": "GFW non-commercial; attribution required",
    "name": "Global Fishing Watch — Events API (AIS gaps)",
    "url": "https://globalfishingwatch.org/our-apis/"
  },
  "window": {
    "capped": true,
    "ended_within_days": 7,
    "examined": 281,
    "from": "2026-07-11",
    "to": "2026-07-21"
  }
}
