{
  "date": "2026-07-12",
  "events": [
    {
      "duration_hours": 1145.7,
      "end": "2026-07-07T18:59:33.000Z",
      "gfw_url": "https://globalfishingwatch.org/map/vessel/ebf43c4d8-8e6a-bddd-493a-eafa2e1b4049",
      "id": "bf5fcd9eb8902ec54394b514af04cec2",
      "off": {
        "lat": 10.5407,
        "lon": -91.3625
      },
      "on": {
        "lat": 2.9967,
        "lon": -110.0333
      },
      "regions": {
        "eez": [
          "8428"
        ],
        "eez_name": "Salvadoran EEZ",
        "high_seas": false,
        "mpa": false,
        "no_take": false
      },
      "start": "2026-05-21T01:17:17.000Z",
      "vessel": {
        "flag": "SLV",
        "name": "F/V MONTELAPE",
        "type": "fishing"
      }
    },
    {
      "duration_hours": 992.1,
      "end": "2026-07-07T05:39:43.000Z",
      "gfw_url": "https://globalfishingwatch.org/map/vessel/cfbc1641d-dd07-321b-56e2-836b29b1713e",
      "id": "2aeef49e1976f3dba2afa632106d675b",
      "off": {
        "lat": -2.3799,
        "lon": -170.0033
      },
      "on": {
        "lat": -2.5792,
        "lon": -168.9567
      },
      "regions": {
        "eez": [
          "8450"
        ],
        "eez_name": "Kiribati EEZ (Phoenix Group)",
        "high_seas": false,
        "mpa": false,
        "no_take": false
      },
      "start": "2026-05-26T21:33:37.000Z",
      "vessel": {
        "flag": "—",
        "name": "XINSHIJI 77-16    9V",
        "type": "gear"
      }
    },
    {
      "duration_hours": 899.4,
      "end": "2026-07-06T12:02:37.000Z",
      "gfw_url": "https://globalfishingwatch.org/map/vessel/4ed2ee532-2942-5479-c326-6d2ec2f32cde",
      "id": "22542cf4d136b93be5d9427f9b0991a5",
      "off": {
        "lat": -14.5218,
        "lon": 44.4276
      },
      "on": {
        "lat": -4.0417,
        "lon": 57.9317
      },
      "regions": {
        "eez": [
          "48944"
        ],
        "eez_name": "Overlapping claim Mayotte: France / Comoros",
        "high_seas": false,
        "mpa": false,
        "no_take": false
      },
      "start": "2026-05-30T00:40:47.000Z",
      "vessel": {
        "flag": "ESP",
        "name": "DONIENE",
        "type": "fishing"
      }
    },
    {
      "duration_hours": 750.4,
      "end": "2026-07-05T00:19:57.000Z",
      "gfw_url": "https://globalfishingwatch.org/map/vessel/af39ce7cb-b7b5-74bb-4e60-fe24b2e3c4f0",
      "id": "14b2546ecceb391b53b22e7136e4bb52",
      "off": {
        "lat": 3.6556,
        "lon": -94.6034
      },
      "on": {
        "lat": -1.63,
        "lon": -96.0967
      },
      "regions": {
        "eez": [
          "8403"
        ],
        "eez_name": "Ecuadorian EEZ (Galapagos)",
        "high_seas": false,
        "mpa": false,
        "no_take": false
      },
      "start": "2026-06-03T17:55:36.000Z",
      "vessel": {
        "flag": "USA",
        "name": "DANIELA",
        "type": "fishing"
      }
    },
    {
      "duration_hours": 633.0,
      "end": "2026-07-06T04:22:54.000Z",
      "gfw_url": "https://globalfishingwatch.org/map/vessel/7f916d059-9c2c-2eb8-c3e6-42d9addf0dd5",
      "id": "bec3813beb909423f7da4f0a5eeca7d6",
      "off": {
        "lat": 5.1566,
        "lon": 160.5634
      },
      "on": {
        "lat": -1.3952,
        "lon": 156.4837
      },
      "regions": {
        "eez": [
          "8316"
        ],
        "eez_name": "Micronesian EEZ",
        "high_seas": false,
        "mpa": false,
        "no_take": false
      },
      "start": "2026-06-09T19:25:42.000Z",
      "vessel": {
        "flag": "TWN",
        "name": "WIN FAR 626",
        "type": "fishing"
      }
    },
    {
      "duration_hours": 513.9,
      "end": "2026-07-06T14:40:07.000Z",
      "gfw_url": "https://globalfishingwatch.org/map/vessel/0e6e33a8e-ed23-7936-49be-11f4af2becf9",
      "id": "17f7e9aca1cc1ad5fe5a8a68a362f225",
      "off": {
        "lat": 4.0099,
        "lon": 0.8319
      },
      "on": {
        "lat": 1.0016,
        "lon": -6.5524
      },
      "regions": {
        "eez": [
          "8400"
        ],
        "eez_name": "Ghanaian EEZ",
        "high_seas": false,
        "mpa": false,
        "no_take": false
      },
      "start": "2026-06-15T04:43:29.000Z",
      "vessel": {
        "flag": "GHA",
        "name": "COMMANDER",
        "type": "fishing"
      }
    },
    {
      "duration_hours": 409.4,
      "end": "2026-07-06T09:11:23.000Z",
      "gfw_url": "https://globalfishingwatch.org/map/vessel/e69d914d1-1fc8-bfe1-f35d-051a6b76cf22",
      "id": "9cf1611a23a6f28b60c2f8de43a9ba59",
      "off": {
        "lat": -7.1879,
        "lon": 103.2399
      },
      "on": {
        "lat": -34.0575,
        "lon": 17.2701
      },
      "regions": {
        "eez": [
          "8492"
        ],
        "eez_name": "Indonesian EEZ",
        "high_seas": false,
        "mpa": false,
        "no_take": false
      },
      "start": "2026-06-19T07:48:20.000Z",
      "vessel": {
        "flag": "MHL",
        "name": "HAFNIA TOURMALINE",
        "type": "other"
      }
    },
    {
      "duration_hours": 384.9,
      "end": "2026-07-05T06:13:13.000Z",
      "gfw_url": "https://globalfishingwatch.org/map/vessel/f677e54ed-dbef-b8b2-36fe-866a5eafc79f",
      "id": "1fe017a20ad934eaff8c4ae7301112db",
      "off": {
        "lat": 5.5789,
        "lon": 150.6479
      },
      "on": {
        "lat": 2.993,
        "lon": 157.1713
      },
      "regions": {
        "eez": [
          "8316"
        ],
        "eez_name": "Micronesian EEZ",
        "high_seas": false,
        "mpa": false,
        "no_take": false
      },
      "start": "2026-06-19T05:19:18.000Z",
      "vessel": {
        "flag": "JPN",
        "name": "KOYO MARU NO.55",
        "type": "fishing"
      }
    },
    {
      "duration_hours": 312.3,
      "end": "2026-07-06T07:53:39.000Z",
      "gfw_url": "https://globalfishingwatch.org/map/vessel/f6b71eefb-b385-43e0-ed8c-fceaf302ba12",
      "id": "bcf6192c75b4f7ff0563095d272b4580",
      "off": {
        "lat": 6.23,
        "lon": 145.6365
      },
      "on": {
        "lat": -0.2533,
        "lon": 156.8967
      },
      "regions": {
        "eez": [
          "8316"
        ],
        "eez_name": "Micronesian EEZ",
        "high_seas": false,
        "mpa": false,
        "no_take": false
      },
      "start": "2026-06-23T07:35:55.000Z",
      "vessel": {
        "flag": "JPN",
        "name": "WAKABAMARU NO11",
        "type": "fishing"
      }
    },
    {
      "duration_hours": 253.9,
      "end": "2026-07-06T03:55:20.000Z",
      "gfw_url": "https://globalfishingwatch.org/map/vessel/48fcacd8c-c782-2209-66d9-f06cf0e96cb5",
      "id": "5fb830ca4b1bcd9cbae4b6102c4ce3b6",
      "off": {
        "lat": -23.4602,
        "lon": 50.8493
      },
      "on": {
        "lat": 19.7118,
        "lon": 58.389
      },
      "regions": {
        "eez": [
          "8348"
        ],
        "eez_name": "Madagascan EEZ",
        "high_seas": false,
        "mpa": false,
        "no_take": false
      },
      "start": "2026-06-25T13:58:36.000Z",
      "vessel": {
        "flag": "GBR",
        "name": "ANVIL POINT",
        "type": "cargo"
      }
    },
    {
      "duration_hours": 247.8,
      "end": "2026-07-07T00:52:04.000Z",
      "gfw_url": "https://globalfishingwatch.org/map/vessel/7bcf608fe-e778-6a7e-2754-d6f942a19d5c",
      "id": "ac66369a2c70a7bc88f7d53f278ceb73",
      "off": {
        "lat": -13.8866,
        "lon": 94.836
      },
      "on": {
        "lat": -34.5795,
        "lon": 24.4541
      },
      "regions": {
        "eez": [
          "8308"
        ],
        "eez_name": "Australian EEZ (Cocos Islands)",
        "high_seas": false,
        "mpa": false,
        "no_take": false
      },
      "start": "2026-06-26T17:00:11.000Z",
      "vessel": {
        "flag": "LBR",
        "name": "JISU FORTUNE",
        "type": "other"
      }
    },
    {
      "duration_hours": 229.4,
      "end": "2026-07-05T21:08:04.000Z",
      "gfw_url": "https://globalfishingwatch.org/map/vessel/d26df622b-b861-cab1-fe57-def45815cbca",
      "id": "7ac82e0c310369ef684df840c39976ef",
      "off": {
        "lat": -38.5636,
        "lon": 150.7025
      },
      "on": {
        "lat": -38.3401,
        "lon": 150.4829
      },
      "regions": {
        "eez": [
          "8323"
        ],
        "eez_name": "Australian EEZ",
        "high_seas": false,
        "mpa": false,
        "no_take": false
      },
      "start": "2026-06-26T07:44:27.000Z",
      "vessel": {
        "flag": "—",
        "name": "941221195",
        "type": "gear"
      }
    }
  ],
  "generated_at": "2026-07-12T06:27:26Z",
  "index": {
    "dark_hours_examined": 82399.4,
    "in_eez": 111,
    "in_mpa": 0,
    "in_no_take": 0,
    "on_high_seas": 0,
    "total": 5559
  },
  "pick": "bf5fcd9eb8902ec54394b514af04cec2",
  "pipeline_version": "0.1.0",
  "schema_version": "1",
  "source": {
    "license": "GFW non-commercial; attribution required",
    "name": "Global Fishing Watch — Events API (AIS gaps)",
    "url": "https://globalfishingwatch.org/our-apis/"
  },
  "window": {
    "capped": true,
    "ended_within_days": 7,
    "examined": 273,
    "from": "2026-07-02",
    "to": "2026-07-12"
  }
}
