{
  "date": "2026-07-04",
  "events": [
    {
      "duration_hours": 1420.1,
      "end": "2026-06-29T05:00:46.000Z",
      "gfw_url": "https://globalfishingwatch.org/map/vessel/b63a6b592-2a4f-ee50-f1c2-7751bcfc953b",
      "id": "636945e683b0d8f72ded7303be35280f",
      "off": {
        "lat": -6.2768,
        "lon": -174.2499
      },
      "on": {
        "lat": -11.0916,
        "lon": -176.4459
      },
      "regions": {
        "eez": [
          "8450"
        ],
        "eez_name": "Kiribati EEZ (Phoenix Group)",
        "high_seas": false,
        "mpa": false,
        "no_take": false
      },
      "start": "2026-05-01T00:52:51.000Z",
      "vessel": {
        "flag": "CHN",
        "name": "SYY33-2024-06-99%",
        "type": "gear"
      }
    },
    {
      "duration_hours": 1419.7,
      "end": "2026-06-29T03:28:54.000Z",
      "gfw_url": "https://globalfishingwatch.org/map/vessel/b1c12d54e-e0a5-610f-e6c0-276461d0c512",
      "id": "4e4ca342627d30dacfc5b259e7ccec33",
      "off": {
        "lat": -6.1305,
        "lon": -174.2075
      },
      "on": {
        "lat": -11.2716,
        "lon": -176.4987
      },
      "regions": {
        "eez": [
          "8450"
        ],
        "eez_name": "Kiribati EEZ (Phoenix Group)",
        "high_seas": false,
        "mpa": false,
        "no_take": false
      },
      "start": "2026-04-30T23:46:08.000Z",
      "vessel": {
        "flag": "CHN",
        "name": "SYY33-2024-02-99%",
        "type": "gear"
      }
    },
    {
      "duration_hours": 1418.5,
      "end": "2026-06-29T03:31:43.000Z",
      "gfw_url": "https://globalfishingwatch.org/map/vessel/36a1aa3e4-4d10-48b9-b298-76714e9c3350",
      "id": "20f3ff1ba279e4b3c50da67bc0b2f2e2",
      "off": {
        "lat": -6.2906,
        "lon": -174.2532
      },
      "on": {
        "lat": -11.2661,
        "lon": -176.497
      },
      "regions": {
        "eez": [
          "8450"
        ],
        "eez_name": "Kiribati EEZ (Phoenix Group)",
        "high_seas": false,
        "mpa": false,
        "no_take": false
      },
      "start": "2026-05-01T00:59:09.000Z",
      "vessel": {
        "flag": "CHN",
        "name": "SYY33-2024-01-99%",
        "type": "gear"
      }
    },
    {
      "duration_hours": 1417.2,
      "end": "2026-06-29T02:25:23.000Z",
      "gfw_url": "https://globalfishingwatch.org/map/vessel/9369b7290-0861-801a-825f-1e662b73136b",
      "id": "4248b0fdac1d21460ef98c8ba1863e70",
      "off": {
        "lat": -6.3282,
        "lon": -174.262
      },
      "on": {
        "lat": -11.3969,
        "lon": -176.5384
      },
      "regions": {
        "eez": [
          "8450"
        ],
        "eez_name": "Kiribati EEZ (Phoenix Group)",
        "high_seas": false,
        "mpa": false,
        "no_take": false
      },
      "start": "2026-05-01T01:16:07.000Z",
      "vessel": {
        "flag": "CHN",
        "name": "SUIYUANYU--------8V1",
        "type": "gear"
      }
    },
    {
      "duration_hours": 937.5,
      "end": "2026-06-28T16:39:30.000Z",
      "gfw_url": "https://globalfishingwatch.org/map/vessel/ceea5ac17-78be-e196-ed0e-e8dd58a420a7",
      "id": "1d29e822e1c109d3e9def0e5b28754a7",
      "off": {
        "lat": 2.8575,
        "lon": -91.7182
      },
      "on": {
        "lat": -1.1132,
        "lon": -81.4196
      },
      "regions": {
        "eez": [
          "8403"
        ],
        "eez_name": "Ecuadorian EEZ (Galapagos)",
        "high_seas": false,
        "mpa": false,
        "no_take": false
      },
      "start": "2026-05-20T15:08:55.000Z",
      "vessel": {
        "flag": "ECU",
        "name": "BP MILENKA C",
        "type": "fishing"
      }
    },
    {
      "duration_hours": 901.6,
      "end": "2026-06-28T20:40:05.000Z",
      "gfw_url": "https://globalfishingwatch.org/map/vessel/cc4f799b6-6cd2-844d-5cca-7722782ac923",
      "id": "b0336fb54ceaad04e422e3851fb36ab8",
      "off": {
        "lat": -1.0584,
        "lon": -172.3713
      },
      "on": {
        "lat": 2.3493,
        "lon": -160.0393
      },
      "regions": {
        "eez": [
          "8450"
        ],
        "eez_name": "Kiribati EEZ (Phoenix Group)",
        "high_seas": false,
        "mpa": false,
        "no_take": false
      },
      "start": "2026-05-22T07:03:32.000Z",
      "vessel": {
        "flag": "KOR",
        "name": "SAJO FAMILIA",
        "type": "fishing"
      }
    },
    {
      "duration_hours": 825.2,
      "end": "2026-06-27T05:02:02.000Z",
      "gfw_url": "https://globalfishingwatch.org/map/vessel/8f44495d9-93c6-8f59-42d5-5e4473a91a87",
      "id": "91a8d15903764c07813a7b1f5eddd530",
      "off": {
        "lat": 3.5702,
        "lon": 157.5491
      },
      "on": {
        "lat": 7.0138,
        "lon": 158.1716
      },
      "regions": {
        "eez": [
          "8316"
        ],
        "eez_name": "Micronesian EEZ",
        "high_seas": false,
        "mpa": false,
        "no_take": false
      },
      "start": "2026-05-23T19:49:09.000Z",
      "vessel": {
        "flag": "FSM",
        "name": "QUEEN ANNE 959",
        "type": "fishing"
      }
    },
    {
      "duration_hours": 660.4,
      "end": "2026-06-27T13:07:17.000Z",
      "gfw_url": "https://globalfishingwatch.org/map/vessel/5746b3ced-d35c-9f2c-3d3c-d59c88bdc92b",
      "id": "9c92201d6b896e95ce7081759eaffa01",
      "off": {
        "lat": -4.5249,
        "lon": 52.9599
      },
      "on": {
        "lat": -3.13,
        "lon": 55.3017
      },
      "regions": {
        "eez": [
          "8337"
        ],
        "eez_name": "Seychellois EEZ",
        "high_seas": false,
        "mpa": false,
        "no_take": false
      },
      "start": "2026-05-31T00:42:12.000Z",
      "vessel": {
        "flag": "REU",
        "name": "F/V DOLOMIEU",
        "type": "fishing"
      }
    },
    {
      "duration_hours": 627.1,
      "end": "2026-06-29T22:28:22.000Z",
      "gfw_url": "https://globalfishingwatch.org/map/vessel/829097c17-746f-94d5-512f-3fe4467c87f7",
      "id": "858f89ccd669ab9da04b64b6f7e0ac02",
      "off": {
        "lat": 0.7148,
        "lon": 156.0179
      },
      "on": {
        "lat": -1.3363,
        "lon": 155.7942
      },
      "regions": {
        "eez": [
          "8316"
        ],
        "eez_name": "Micronesian EEZ",
        "high_seas": false,
        "mpa": false,
        "no_take": false
      },
      "start": "2026-06-03T19:20:47.000Z",
      "vessel": {
        "flag": "TWN",
        "name": "JIH YU 568",
        "type": "fishing"
      }
    },
    {
      "duration_hours": 608.3,
      "end": "2026-06-27T16:53:56.000Z",
      "gfw_url": "https://globalfishingwatch.org/map/vessel/597687aed-dc05-ad42-bc4b-56221c6eef2c",
      "id": "07d114b151f769215df7f047cc4bec8c",
      "off": {
        "lat": -22.2388,
        "lon": 38.2837
      },
      "on": {
        "lat": 25.4401,
        "lon": 56.637
      },
      "regions": {
        "eez": [
          "8340"
        ],
        "eez_name": "French EEZ (Bassas da India)",
        "high_seas": false,
        "mpa": false,
        "no_take": false
      },
      "start": "2026-06-02T08:34:14.000Z",
      "vessel": {
        "flag": "LBR",
        "name": "MINOAN DIGNITY",
        "type": "cargo"
      }
    },
    {
      "duration_hours": 585.2,
      "end": "2026-06-28T04:06:16.000Z",
      "gfw_url": "https://globalfishingwatch.org/map/vessel/22b992918-887d-565c-4ca7-91f79e4b849e",
      "id": "ebc5471a3bb8f5f564abf2be7abc46b7",
      "off": {
        "lat": -33.8855,
        "lon": -49.4026
      },
      "on": {
        "lat": -33.2326,
        "lon": -49.9839
      },
      "regions": {
        "eez": [
          "8464"
        ],
        "eez_name": "Brazilian EEZ",
        "high_seas": false,
        "mpa": false,
        "no_take": false
      },
      "start": "2026-06-03T18:53:11.000Z",
      "vessel": {
        "flag": "—",
        "name": "ANA CLARA BOIA 8",
        "type": "fishing"
      }
    },
    {
      "duration_hours": 584.0,
      "end": "2026-06-28T01:44:47.000Z",
      "gfw_url": "https://globalfishingwatch.org/map/vessel/5f4926deb-bc8d-a725-ec00-727cb71d7b20",
      "id": "7441f1ee1faba0ae0974ca6e1dba6d4b",
      "off": {
        "lat": -7.3398,
        "lon": -179.1549
      },
      "on": {
        "lat": 1.2692,
        "lon": -158.7315
      },
      "regions": {
        "eez": [
          "8326"
        ],
        "eez_name": "Tuvaluan EEZ",
        "high_seas": false,
        "mpa": false,
        "no_take": false
      },
      "start": "2026-06-03T17:45:27.000Z",
      "vessel": {
        "flag": "KOR",
        "name": "SAJO CONCORDIA",
        "type": "fishing"
      }
    }
  ],
  "generated_at": "2026-07-04T06:41:05Z",
  "index": {
    "dark_hours_examined": 83429.4,
    "in_eez": 97,
    "in_mpa": 0,
    "in_no_take": 0,
    "on_high_seas": 0,
    "total": 5580
  },
  "pick": "636945e683b0d8f72ded7303be35280f",
  "pipeline_version": "0.1.0",
  "schema_version": "1",
  "source": {
    "license": "GFW non-commercial; attribution required",
    "name": "Global Fishing Watch — Events API (AIS gaps)",
    "url": "https://globalfishingwatch.org/our-apis/"
  },
  "window": {
    "capped": true,
    "ended_within_days": 7,
    "examined": 262,
    "from": "2026-06-24",
    "to": "2026-07-04"
  }
}
