{
  "date": "2026-07-15",
  "events": [
    {
      "duration_hours": 1069.2,
      "end": "2026-07-10T00:07:38.000Z",
      "gfw_url": "https://globalfishingwatch.org/map/vessel/f266c30de-eef6-7a18-0720-d9d09db377d6",
      "id": "1e69615cbfcd08035ac54b51726b4c32",
      "off": {
        "lat": 10.084,
        "lon": -89.7592
      },
      "on": {
        "lat": 10.7137,
        "lon": -95.408
      },
      "regions": {
        "eez": [
          "8428"
        ],
        "eez_name": "Salvadoran EEZ",
        "high_seas": false,
        "mpa": false,
        "no_take": false
      },
      "start": "2026-05-26T10:54:45.000Z",
      "vessel": {
        "flag": "SLV",
        "name": "MONTELUCIA",
        "type": "fishing"
      }
    },
    {
      "duration_hours": 1046.8,
      "end": "2026-07-10T21:51:32.000Z",
      "gfw_url": "https://globalfishingwatch.org/map/vessel/7662316d2-291c-6ec0-e234-72bc00f8b296",
      "id": "d7a24ed34bd4a0d426c0be086a86b7dc",
      "off": {
        "lat": -10.9555,
        "lon": -154.4977
      },
      "on": {
        "lat": -9.0199,
        "lon": -176.4121
      },
      "regions": {
        "eez": [
          "8441"
        ],
        "eez_name": "Kiribati EEZ (Line Group)",
        "high_seas": false,
        "mpa": false,
        "no_take": false
      },
      "start": "2026-05-28T07:01:38.000Z",
      "vessel": {
        "flag": "CHN",
        "name": "GYY338-02",
        "type": "gear"
      }
    },
    {
      "duration_hours": 978.9,
      "end": "2026-07-10T10:53:10.000Z",
      "gfw_url": "https://globalfishingwatch.org/map/vessel/5ba4e98f8-8386-0d57-04bc-4f09b8251e2d",
      "id": "6d22d58c3e25ee7b64331e9b6fa37faa",
      "off": {
        "lat": 58.3479,
        "lon": -148.4786
      },
      "on": {
        "lat": 54.0666,
        "lon": -162.2401
      },
      "regions": {
        "eez": [
          "8463"
        ],
        "eez_name": "United States EEZ (Alaska)",
        "high_seas": false,
        "mpa": false,
        "no_take": false
      },
      "start": "2026-05-30T15:57:12.000Z",
      "vessel": {
        "flag": "ISL",
        "name": "HSD-NET-99%",
        "type": "gear"
      }
    },
    {
      "duration_hours": 873.6,
      "end": "2026-07-09T23:04:07.000Z",
      "gfw_url": "https://globalfishingwatch.org/map/vessel/0465128db-bac6-64ce-2866-fe007aefa8fe",
      "id": "32b081533fee5bcfdbfe429b42375d77",
      "off": {
        "lat": 2.6413,
        "lon": -94.0366
      },
      "on": {
        "lat": 7.5,
        "lon": -124.955
      },
      "regions": {
        "eez": [
          "8403"
        ],
        "eez_name": "Ecuadorian EEZ (Galapagos)",
        "high_seas": false,
        "mpa": false,
        "no_take": false
      },
      "start": "2026-06-03T13:27:13.000Z",
      "vessel": {
        "flag": "ECU",
        "name": "DON F",
        "type": "fishing"
      }
    },
    {
      "duration_hours": 873.8,
      "end": "2026-07-08T18:52:18.000Z",
      "gfw_url": "https://globalfishingwatch.org/map/vessel/b29c669a1-1c5b-009b-74c1-8b85e848ec7e",
      "id": "d94fd734d2a444282046908886870e76",
      "off": {
        "lat": 2.9741,
        "lon": 168.8497
      },
      "on": {
        "lat": 3.968,
        "lon": 166.5299
      },
      "regions": {
        "eez": [
          "8318"
        ],
        "eez_name": "Marshallese EEZ",
        "high_seas": false,
        "mpa": false,
        "no_take": false
      },
      "start": "2026-06-02T09:02:06.000Z",
      "vessel": {
        "flag": "—",
        "name": "HNY767-03",
        "type": "gear"
      }
    },
    {
      "duration_hours": 736.5,
      "end": "2026-07-08T02:34:32.000Z",
      "gfw_url": "https://globalfishingwatch.org/map/vessel/1e265e6d8-8e35-3e56-e03f-e5d60558b29d",
      "id": "e1ba106ff39a056854959fca4674fc72",
      "off": {
        "lat": 0.15,
        "lon": -81.3053
      },
      "on": {
        "lat": 4.661,
        "lon": -90.2127
      },
      "regions": {
        "eez": [
          "8431"
        ],
        "eez_name": "Ecuadorian EEZ",
        "high_seas": false,
        "mpa": false,
        "no_take": false
      },
      "start": "2026-06-07T10:03:09.000Z",
      "vessel": {
        "flag": "NIC",
        "name": "PESCATUN I",
        "type": "fishing"
      }
    },
    {
      "duration_hours": 662.6,
      "end": "2026-07-08T20:37:10.000Z",
      "gfw_url": "https://globalfishingwatch.org/map/vessel/f61fde25d-dc33-51fd-8bfe-9ae65c66d172",
      "id": "6b63d424dcb279bd98cf3ca9387ad9b0",
      "off": {
        "lat": -3.7305,
        "lon": 161.0584
      },
      "on": {
        "lat": 7.0095,
        "lon": 158.1747
      },
      "regions": {
        "eez": [
          "8324"
        ],
        "eez_name": "Papua New Guinean EEZ",
        "high_seas": false,
        "mpa": false,
        "no_take": false
      },
      "start": "2026-06-11T06:03:10.000Z",
      "vessel": {
        "flag": "FSM",
        "name": "SOKEHS",
        "type": "fishing"
      }
    },
    {
      "duration_hours": 577.3,
      "end": "2026-07-08T17:45:27.000Z",
      "gfw_url": "https://globalfishingwatch.org/map/vessel/de71f5d61-1022-bcb0-2a52-5933fa3c8a39",
      "id": "da95484e45f0d3f395b6a0aeabbc92e8",
      "off": {
        "lat": 23.1394,
        "lon": -156.8664
      },
      "on": {
        "lat": 22.8035,
        "lon": -156.5156
      },
      "regions": {
        "eez": [
          "8453"
        ],
        "eez_name": "United States EEZ (Hawaii)",
        "high_seas": false,
        "mpa": false,
        "no_take": false
      },
      "start": "2026-06-14T16:28:59.000Z",
      "vessel": {
        "flag": "USA",
        "name": "LADY EN",
        "type": "fishing"
      }
    },
    {
      "duration_hours": 562.9,
      "end": "2026-07-08T06:52:56.000Z",
      "gfw_url": "https://globalfishingwatch.org/map/vessel/29d5892ae-e845-0b25-ea80-bbc12e32b5c5",
      "id": "4ef31bea934b75125e85248bf4aaf380",
      "off": {
        "lat": 24.5727,
        "lon": -156.6515
      },
      "on": {
        "lat": 21.7911,
        "lon": -157.5545
      },
      "regions": {
        "eez": [
          "8453"
        ],
        "eez_name": "United States EEZ (Hawaii)",
        "high_seas": false,
        "mpa": false,
        "no_take": false
      },
      "start": "2026-06-14T19:57:21.000Z",
      "vessel": {
        "flag": "USA",
        "name": "CUMBERLAND TRAIL",
        "type": "fishing"
      }
    },
    {
      "duration_hours": 465.3,
      "end": "2026-07-10T03:05:43.000Z",
      "gfw_url": "https://globalfishingwatch.org/map/vessel/2dac49e91-1f18-7079-02b9-e88236891382",
      "id": "c5aca488acc1cc51ad103d8eb9c32fd1",
      "off": {
        "lat": -1.2846,
        "lon": -94.1619
      },
      "on": {
        "lat": -2.0675,
        "lon": -93.0279
      },
      "regions": {
        "eez": [
          "8403"
        ],
        "eez_name": "Ecuadorian EEZ (Galapagos)",
        "high_seas": false,
        "mpa": false,
        "no_take": false
      },
      "start": "2026-06-20T17:46:57.000Z",
      "vessel": {
        "flag": "—",
        "name": "BOYA 1 TATIANA 1 100",
        "type": "fishing"
      }
    },
    {
      "duration_hours": 449.1,
      "end": "2026-07-08T18:57:15.000Z",
      "gfw_url": "https://globalfishingwatch.org/map/vessel/9d8deaf1d-dc2e-5caa-9e8e-632301f8ca7c",
      "id": "5470242eabf6f277fcf9257544c8b7d2",
      "off": {
        "lat": 5.6933,
        "lon": 145.8405
      },
      "on": {
        "lat": 0.7315,
        "lon": 156.4578
      },
      "regions": {
        "eez": [
          "8316"
        ],
        "eez_name": "Micronesian EEZ",
        "high_seas": false,
        "mpa": false,
        "no_take": false
      },
      "start": "2026-06-20T01:54:05.000Z",
      "vessel": {
        "flag": "JPN",
        "name": "SHOKIMARU NO.36",
        "type": "fishing"
      }
    },
    {
      "duration_hours": 443.0,
      "end": "2026-07-10T13:50:50.000Z",
      "gfw_url": "https://globalfishingwatch.org/map/vessel/eb1ce84c9-911e-f3eb-a3c8-bf0f87b94e41",
      "id": "7d58c5d37baeddcab8394537a3b99fec",
      "off": {
        "lat": -2.9589,
        "lon": 162.0173
      },
      "on": {
        "lat": -8.8183,
        "lon": 159.9683
      },
      "regions": {
        "eez": [
          "8324"
        ],
        "eez_name": "Papua New Guinean EEZ",
        "high_seas": false,
        "mpa": false,
        "no_take": false
      },
      "start": "2026-06-22T02:52:25.000Z",
      "vessel": {
        "flag": "CHN",
        "name": "HAN YANG 66",
        "type": "fishing"
      }
    }
  ],
  "generated_at": "2026-07-15T06:08:53Z",
  "index": {
    "dark_hours_examined": 78965.5,
    "in_eez": 140,
    "in_mpa": 0,
    "in_no_take": 0,
    "on_high_seas": 0,
    "total": 5285
  },
  "pick": "1e69615cbfcd08035ac54b51726b4c32",
  "pipeline_version": "0.1.0",
  "schema_version": "1",
  "source": {
    "license": "GFW non-commercial; attribution required",
    "name": "Global Fishing Watch — Events API (AIS gaps)",
    "url": "https://globalfishingwatch.org/our-apis/"
  },
  "window": {
    "capped": true,
    "ended_within_days": 7,
    "examined": 284,
    "from": "2026-07-05",
    "to": "2026-07-15"
  }
}
