{
  "date": "2026-07-06",
  "events": [
    {
      "duration_hours": 1420.1,
      "end": "2026-06-29T05:00:46.000Z",
      "gfw_url": "https://globalfishingwatch.org/map/vessel/b63a6b592-2a4f-ee50-f1c2-7751bcfc953b",
      "id": "636945e683b0d8f72ded7303be35280f",
      "off": {
        "lat": -6.2768,
        "lon": -174.2499
      },
      "on": {
        "lat": -11.0916,
        "lon": -176.4459
      },
      "regions": {
        "eez": [
          "8450"
        ],
        "eez_name": "Kiribati EEZ (Phoenix Group)",
        "high_seas": false,
        "mpa": false,
        "no_take": false
      },
      "start": "2026-05-01T00:52:51.000Z",
      "vessel": {
        "flag": "CHN",
        "name": "SYY33-2024-06-99%",
        "type": "gear"
      }
    },
    {
      "duration_hours": 1419.7,
      "end": "2026-06-29T03:28:54.000Z",
      "gfw_url": "https://globalfishingwatch.org/map/vessel/b1c12d54e-e0a5-610f-e6c0-276461d0c512",
      "id": "4e4ca342627d30dacfc5b259e7ccec33",
      "off": {
        "lat": -6.1305,
        "lon": -174.2075
      },
      "on": {
        "lat": -11.2716,
        "lon": -176.4987
      },
      "regions": {
        "eez": [
          "8450"
        ],
        "eez_name": "Kiribati EEZ (Phoenix Group)",
        "high_seas": false,
        "mpa": false,
        "no_take": false
      },
      "start": "2026-04-30T23:46:08.000Z",
      "vessel": {
        "flag": "CHN",
        "name": "SYY33-2024-02-99%",
        "type": "gear"
      }
    },
    {
      "duration_hours": 1418.5,
      "end": "2026-06-29T03:31:43.000Z",
      "gfw_url": "https://globalfishingwatch.org/map/vessel/36a1aa3e4-4d10-48b9-b298-76714e9c3350",
      "id": "20f3ff1ba279e4b3c50da67bc0b2f2e2",
      "off": {
        "lat": -6.2906,
        "lon": -174.2532
      },
      "on": {
        "lat": -11.2661,
        "lon": -176.497
      },
      "regions": {
        "eez": [
          "8450"
        ],
        "eez_name": "Kiribati EEZ (Phoenix Group)",
        "high_seas": false,
        "mpa": false,
        "no_take": false
      },
      "start": "2026-05-01T00:59:09.000Z",
      "vessel": {
        "flag": "CHN",
        "name": "SYY33-2024-01-99%",
        "type": "gear"
      }
    },
    {
      "duration_hours": 1417.2,
      "end": "2026-06-29T02:25:23.000Z",
      "gfw_url": "https://globalfishingwatch.org/map/vessel/9369b7290-0861-801a-825f-1e662b73136b",
      "id": "4248b0fdac1d21460ef98c8ba1863e70",
      "off": {
        "lat": -6.3282,
        "lon": -174.262
      },
      "on": {
        "lat": -11.3969,
        "lon": -176.5384
      },
      "regions": {
        "eez": [
          "8450"
        ],
        "eez_name": "Kiribati EEZ (Phoenix Group)",
        "high_seas": false,
        "mpa": false,
        "no_take": false
      },
      "start": "2026-05-01T01:16:07.000Z",
      "vessel": {
        "flag": "CHN",
        "name": "SUIYUANYU--------8V1",
        "type": "gear"
      }
    },
    {
      "duration_hours": 1001.2,
      "end": "2026-06-30T12:15:40.000Z",
      "gfw_url": "https://globalfishingwatch.org/map/vessel/558b78a65-5215-e489-6307-8f6d0f0ed32f",
      "id": "07041eff553d12989b5a30e6e23a262f",
      "off": {
        "lat": 2.5547,
        "lon": -92.2618
      },
      "on": {
        "lat": 3.7442,
        "lon": -93.7885
      },
      "regions": {
        "eez": [
          "8403"
        ],
        "eez_name": "Ecuadorian EEZ (Galapagos)",
        "high_seas": false,
        "mpa": false,
        "no_take": false
      },
      "start": "2026-05-19T19:00:23.000Z",
      "vessel": {
        "flag": "ECU",
        "name": "CAP. BERNY B",
        "type": "fishing"
      }
    },
    {
      "duration_hours": 976.0,
      "end": "2026-06-30T04:11:25.000Z",
      "gfw_url": "https://globalfishingwatch.org/map/vessel/71f1504b8-8442-fd28-f84c-885771d5f86d",
      "id": "909cfe1dc2d7e9a2be854bd0a248ecbf",
      "off": {
        "lat": 2.9521,
        "lon": -91.4688
      },
      "on": {
        "lat": -1.1421,
        "lon": -96.8694
      },
      "regions": {
        "eez": [
          "8403"
        ],
        "eez_name": "Ecuadorian EEZ (Galapagos)",
        "high_seas": false,
        "mpa": false,
        "no_take": false
      },
      "start": "2026-05-20T12:13:04.000Z",
      "vessel": {
        "flag": "ECU",
        "name": "ANDREA D",
        "type": "fishing"
      }
    },
    {
      "duration_hours": 964.7,
      "end": "2026-07-01T03:59:27.000Z",
      "gfw_url": "https://globalfishingwatch.org/map/vessel/6992542fd-d3f5-4d3c-bc0f-68aa847496c7",
      "id": "415239444d801d4aacc5ea0bbf0a92c8",
      "off": {
        "lat": -2.9675,
        "lon": -90.9753
      },
      "on": {
        "lat": 3.6431,
        "lon": -105.4039
      },
      "regions": {
        "eez": [
          "8403"
        ],
        "eez_name": "Ecuadorian EEZ (Galapagos)",
        "high_seas": false,
        "mpa": false,
        "no_take": false
      },
      "start": "2026-05-21T23:18:29.000Z",
      "vessel": {
        "flag": "PAN",
        "name": "MARIA EULOGIA",
        "type": "fishing"
      }
    },
    {
      "duration_hours": 941.1,
      "end": "2026-07-01T02:10:07.000Z",
      "gfw_url": "https://globalfishingwatch.org/map/vessel/16d9e2924-4936-fe33-2fad-bb58e94be993",
      "id": "5ea8f1339c41a56b25e8fa50af247d39",
      "off": {
        "lat": 12.4351,
        "lon": 138.7639
      },
      "on": {
        "lat": 1.5817,
        "lon": 146.4683
      },
      "regions": {
        "eez": [
          "8316"
        ],
        "eez_name": "Micronesian EEZ",
        "high_seas": false,
        "mpa": false,
        "no_take": false
      },
      "start": "2026-05-22T21:02:25.000Z",
      "vessel": {
        "flag": "JPN",
        "name": "FUKUICHIMARU NO88",
        "type": "fishing"
      }
    },
    {
      "duration_hours": 627.1,
      "end": "2026-06-29T22:28:22.000Z",
      "gfw_url": "https://globalfishingwatch.org/map/vessel/829097c17-746f-94d5-512f-3fe4467c87f7",
      "id": "858f89ccd669ab9da04b64b6f7e0ac02",
      "off": {
        "lat": 0.7148,
        "lon": 156.0179
      },
      "on": {
        "lat": -1.3363,
        "lon": 155.7942
      },
      "regions": {
        "eez": [
          "8316"
        ],
        "eez_name": "Micronesian EEZ",
        "high_seas": false,
        "mpa": false,
        "no_take": false
      },
      "start": "2026-06-03T19:20:47.000Z",
      "vessel": {
        "flag": "TWN",
        "name": "JIH YU 568",
        "type": "fishing"
      }
    },
    {
      "duration_hours": 537.0,
      "end": "2026-07-01T04:39:34.000Z",
      "gfw_url": "https://globalfishingwatch.org/map/vessel/15026e103-3338-c3ff-d395-3889ca228058",
      "id": "094782d0495bc9afa87e32e3bf32731c",
      "off": {
        "lat": 8.8563,
        "lon": 142.334
      },
      "on": {
        "lat": 0.515,
        "lon": 148.8267
      },
      "regions": {
        "eez": [
          "8316"
        ],
        "eez_name": "Micronesian EEZ",
        "high_seas": false,
        "mpa": false,
        "no_take": false
      },
      "start": "2026-06-08T19:42:23.000Z",
      "vessel": {
        "flag": "JPN",
        "name": "FUKUICHIMARU NO.128",
        "type": "fishing"
      }
    },
    {
      "duration_hours": 522.8,
      "end": "2026-07-01T07:55:09.000Z",
      "gfw_url": "https://globalfishingwatch.org/map/vessel/09ca3a885-5c87-263b-98af-1f069c7a86bd",
      "id": "e7e187e53b3695656cc8e4e06c96e322",
      "off": {
        "lat": -1.512,
        "lon": -179.2228
      },
      "on": {
        "lat": 2.3947,
        "lon": 155.6649
      },
      "regions": {
        "eez": [
          "8451"
        ],
        "eez_name": "United States EEZ (Howland and Baker Islands)",
        "high_seas": false,
        "mpa": false,
        "no_take": false
      },
      "start": "2026-06-09T13:06:13.000Z",
      "vessel": {
        "flag": "TWN",
        "name": "WIN-FAR-NO.628",
        "type": "fishing"
      }
    },
    {
      "duration_hours": 505.2,
      "end": "2026-06-29T23:49:39.000Z",
      "gfw_url": "https://globalfishingwatch.org/map/vessel/316367f14-4f3e-6c02-0690-3988baaa686d",
      "id": "e053da93709ceae8fa94f99cb1d82f96",
      "off": {
        "lat": -25.2302,
        "lon": 156.38
      },
      "on": {
        "lat": -28.1717,
        "lon": 156.1573
      },
      "regions": {
        "eez": [
          "8323"
        ],
        "eez_name": "Australian EEZ",
        "high_seas": false,
        "mpa": false,
        "no_take": false
      },
      "start": "2026-06-08T22:38:17.000Z",
      "vessel": {
        "flag": "—",
        "name": "ASSASSIN 7",
        "type": "fishing"
      }
    }
  ],
  "generated_at": "2026-07-06T08:12:56Z",
  "index": {
    "dark_hours_examined": 86159.0,
    "in_eez": 85,
    "in_mpa": 0,
    "in_no_take": 0,
    "on_high_seas": 0,
    "total": 5365
  },
  "pick": "636945e683b0d8f72ded7303be35280f",
  "pipeline_version": "0.1.0",
  "schema_version": "1",
  "source": {
    "license": "GFW non-commercial; attribution required",
    "name": "Global Fishing Watch — Events API (AIS gaps)",
    "url": "https://globalfishingwatch.org/our-apis/"
  },
  "window": {
    "capped": true,
    "ended_within_days": 7,
    "examined": 280,
    "from": "2026-06-26",
    "to": "2026-07-06"
  }
}
