{
  "date": "2026-07-07",
  "events": [
    {
      "duration_hours": 1001.2,
      "end": "2026-06-30T12:15:40.000Z",
      "gfw_url": "https://globalfishingwatch.org/map/vessel/558b78a65-5215-e489-6307-8f6d0f0ed32f",
      "id": "07041eff553d12989b5a30e6e23a262f",
      "off": {
        "lat": 2.5547,
        "lon": -92.2618
      },
      "on": {
        "lat": 3.7442,
        "lon": -93.7885
      },
      "regions": {
        "eez": [
          "8403"
        ],
        "eez_name": "Ecuadorian EEZ (Galapagos)",
        "high_seas": false,
        "mpa": false,
        "no_take": false
      },
      "start": "2026-05-19T19:00:23.000Z",
      "vessel": {
        "flag": "ECU",
        "name": "CAP. BERNY B",
        "type": "fishing"
      }
    },
    {
      "duration_hours": 976.0,
      "end": "2026-06-30T04:11:25.000Z",
      "gfw_url": "https://globalfishingwatch.org/map/vessel/71f1504b8-8442-fd28-f84c-885771d5f86d",
      "id": "909cfe1dc2d7e9a2be854bd0a248ecbf",
      "off": {
        "lat": 2.9521,
        "lon": -91.4688
      },
      "on": {
        "lat": -1.1421,
        "lon": -96.8694
      },
      "regions": {
        "eez": [
          "8403"
        ],
        "eez_name": "Ecuadorian EEZ (Galapagos)",
        "high_seas": false,
        "mpa": false,
        "no_take": false
      },
      "start": "2026-05-20T12:13:04.000Z",
      "vessel": {
        "flag": "ECU",
        "name": "ANDREA D",
        "type": "fishing"
      }
    },
    {
      "duration_hours": 964.7,
      "end": "2026-07-01T03:59:27.000Z",
      "gfw_url": "https://globalfishingwatch.org/map/vessel/6992542fd-d3f5-4d3c-bc0f-68aa847496c7",
      "id": "415239444d801d4aacc5ea0bbf0a92c8",
      "off": {
        "lat": -2.9675,
        "lon": -90.9753
      },
      "on": {
        "lat": 3.6431,
        "lon": -105.4039
      },
      "regions": {
        "eez": [
          "8403"
        ],
        "eez_name": "Ecuadorian EEZ (Galapagos)",
        "high_seas": false,
        "mpa": false,
        "no_take": false
      },
      "start": "2026-05-21T23:18:29.000Z",
      "vessel": {
        "flag": "PAN",
        "name": "MARIA EULOGIA",
        "type": "fishing"
      }
    },
    {
      "duration_hours": 941.1,
      "end": "2026-07-01T02:10:07.000Z",
      "gfw_url": "https://globalfishingwatch.org/map/vessel/16d9e2924-4936-fe33-2fad-bb58e94be993",
      "id": "5ea8f1339c41a56b25e8fa50af247d39",
      "off": {
        "lat": 12.4351,
        "lon": 138.7639
      },
      "on": {
        "lat": 1.5817,
        "lon": 146.4683
      },
      "regions": {
        "eez": [
          "8316"
        ],
        "eez_name": "Micronesian EEZ",
        "high_seas": false,
        "mpa": false,
        "no_take": false
      },
      "start": "2026-05-22T21:02:25.000Z",
      "vessel": {
        "flag": "JPN",
        "name": "FUKUICHIMARU NO88",
        "type": "fishing"
      }
    },
    {
      "duration_hours": 537.0,
      "end": "2026-07-01T04:39:34.000Z",
      "gfw_url": "https://globalfishingwatch.org/map/vessel/15026e103-3338-c3ff-d395-3889ca228058",
      "id": "094782d0495bc9afa87e32e3bf32731c",
      "off": {
        "lat": 8.8563,
        "lon": 142.334
      },
      "on": {
        "lat": 0.515,
        "lon": 148.8267
      },
      "regions": {
        "eez": [
          "8316"
        ],
        "eez_name": "Micronesian EEZ",
        "high_seas": false,
        "mpa": false,
        "no_take": false
      },
      "start": "2026-06-08T19:42:23.000Z",
      "vessel": {
        "flag": "JPN",
        "name": "FUKUICHIMARU NO.128",
        "type": "fishing"
      }
    },
    {
      "duration_hours": 522.8,
      "end": "2026-07-01T07:55:09.000Z",
      "gfw_url": "https://globalfishingwatch.org/map/vessel/09ca3a885-5c87-263b-98af-1f069c7a86bd",
      "id": "e7e187e53b3695656cc8e4e06c96e322",
      "off": {
        "lat": -1.512,
        "lon": -179.2228
      },
      "on": {
        "lat": 2.3947,
        "lon": 155.6649
      },
      "regions": {
        "eez": [
          "8451"
        ],
        "eez_name": "United States EEZ (Howland and Baker Islands)",
        "high_seas": false,
        "mpa": false,
        "no_take": false
      },
      "start": "2026-06-09T13:06:13.000Z",
      "vessel": {
        "flag": "TWN",
        "name": "WIN-FAR-NO.628",
        "type": "fishing"
      }
    },
    {
      "duration_hours": 502.2,
      "end": "2026-06-30T03:26:02.000Z",
      "gfw_url": "https://globalfishingwatch.org/map/vessel/6e9735775-5850-a477-0436-4c44b97fbe91",
      "id": "37f3bfaf58b2fe2b1a67a2363300d262",
      "off": {
        "lat": -25.0251,
        "lon": 156.6142
      },
      "on": {
        "lat": -28.0014,
        "lon": 156.1804
      },
      "regions": {
        "eez": [
          "8323"
        ],
        "eez_name": "Australian EEZ",
        "high_seas": false,
        "mpa": false,
        "no_take": false
      },
      "start": "2026-06-09T05:11:20.000Z",
      "vessel": {
        "flag": "—",
        "name": "ASSASSIN 1",
        "type": "gear"
      }
    },
    {
      "duration_hours": 470.9,
      "end": "2026-07-02T21:13:40.000Z",
      "gfw_url": "https://globalfishingwatch.org/map/vessel/19ffb1264-44ac-2768-3295-0ab2d9b091a1",
      "id": "e70e6938231ca8ee01abc0010e025802",
      "off": {
        "lat": -4.4277,
        "lon": -176.48
      },
      "on": {
        "lat": -2.0581,
        "lon": -168.9975
      },
      "regions": {
        "eez": [
          "8450"
        ],
        "eez_name": "Kiribati EEZ (Phoenix Group)",
        "high_seas": false,
        "mpa": false,
        "no_take": false
      },
      "start": "2026-06-13T06:21:38.000Z",
      "vessel": {
        "flag": "—",
        "name": "J13               9V",
        "type": "gear"
      }
    },
    {
      "duration_hours": 464.4,
      "end": "2026-07-02T23:15:04.000Z",
      "gfw_url": "https://globalfishingwatch.org/map/vessel/80164fcc3-30f6-a840-1cbc-545f517e2405",
      "id": "1c8ae931cea3d6cf64d42fa376a00444",
      "off": {
        "lat": -19.9181,
        "lon": -32.6542
      },
      "on": {
        "lat": -26.8788,
        "lon": -42.5333
      },
      "regions": {
        "eez": [
          "8381"
        ],
        "eez_name": "Brazilian EEZ (Trindade)",
        "high_seas": false,
        "mpa": false,
        "no_take": false
      },
      "start": "2026-06-13T14:49:13.000Z",
      "vessel": {
        "flag": "—",
        "name": "BOIA 11 RER",
        "type": "other"
      }
    },
    {
      "duration_hours": 464.7,
      "end": "2026-07-01T19:32:03.000Z",
      "gfw_url": "https://globalfishingwatch.org/map/vessel/e28d62ad5-5521-8d3a-804d-4a8c99ebb6ee",
      "id": "f421d7bcb10315e15d9fc65daa8d8655",
      "off": {
        "lat": 3.1808,
        "lon": 166.9213
      },
      "on": {
        "lat": 4.083,
        "lon": 169.3655
      },
      "regions": {
        "eez": [
          "8318"
        ],
        "eez_name": "Marshallese EEZ",
        "high_seas": false,
        "mpa": false,
        "no_take": false
      },
      "start": "2026-06-12T10:50:22.000Z",
      "vessel": {
        "flag": "—",
        "name": "SLC782-03",
        "type": "gear"
      }
    },
    {
      "duration_hours": 324.6,
      "end": "2026-07-01T19:36:20.000Z",
      "gfw_url": "https://globalfishingwatch.org/map/vessel/b6070d25c-ca8a-b17e-c1ea-ca84e3630a08",
      "id": "1c5a239869ca74c89921b2b9a5ee0e61",
      "off": {
        "lat": -18.0468,
        "lon": -163.192
      },
      "on": {
        "lat": -18.051,
        "lon": -163.2032
      },
      "regions": {
        "eez": [
          "8446"
        ],
        "eez_name": "New Zealand EEZ (Cook Islands)",
        "high_seas": false,
        "mpa": false,
        "no_take": false
      },
      "start": "2026-06-18T06:59:12.000Z",
      "vessel": {
        "flag": "AUT",
        "name": "INTO THE BLUE",
        "type": "passenger"
      }
    },
    {
      "duration_hours": 324.1,
      "end": "2026-07-02T14:55:09.000Z",
      "gfw_url": "https://globalfishingwatch.org/map/vessel/2b0642b36-6d84-ae1f-9746-126ee65864c8",
      "id": "1eaa8fa604b4a787a70ad57e2564fb2f",
      "off": {
        "lat": 18.2505,
        "lon": -110.1823
      },
      "on": {
        "lat": 8.384,
        "lon": -134.1742
      },
      "regions": {
        "eez": [
          "8429"
        ],
        "eez_name": "Mexican EEZ",
        "high_seas": false,
        "mpa": false,
        "no_take": false
      },
      "start": "2026-06-19T02:46:43.000Z",
      "vessel": {
        "flag": "MEX",
        "name": "FRANZ",
        "type": "fishing"
      }
    }
  ],
  "generated_at": "2026-07-07T07:31:34Z",
  "index": {
    "dark_hours_examined": 73867.2,
    "in_eez": 72,
    "in_mpa": 0,
    "in_no_take": 0,
    "on_high_seas": 0,
    "total": 5323
  },
  "pick": "07041eff553d12989b5a30e6e23a262f",
  "pipeline_version": "0.1.0",
  "schema_version": "1",
  "source": {
    "license": "GFW non-commercial; attribution required",
    "name": "Global Fishing Watch — Events API (AIS gaps)",
    "url": "https://globalfishingwatch.org/our-apis/"
  },
  "window": {
    "capped": true,
    "ended_within_days": 7,
    "examined": 252,
    "from": "2026-06-27",
    "to": "2026-07-07"
  }
}
